[
  {
    "@type": "LocalBusiness",
    "@context": "https://schema.org",
    "name": "Z &Y Restaurant",
    "url": "https://www.yellowpages.com/san-francisco-ca/mip/z-y-restaurant-4970454",
    "address": {
      "@type": "PostalAddress",
      "addressCountry": "US",
      "streetAddress": "655 Jackson St",
      "addressLocality": "San Francisco",
      "addressRegion": "CA",
      "postalCode": "94133"
    },
    "aggregateRating": {
      "@type": "AggregateRating",
      "ratingValue": 4.5,
      "reviewCount": 5
    },
    "telephone": "(415) 981-8988",
    "openingHours": [
      "Mo-Th 11:00-21:30",
      "Fr-Sa 11:00-22:30",
      "Su 11:00-21:30"
    ]
  },
  {
    "@type": "LocalBusiness",
    "@context": "https://schema.org",
    "name": "House of Nan King",
    "url": "https://www.yellowpages.com/san-francisco-ca/mip/house-of-nan-king-15129417",
    "address": {
      "@type": "PostalAddress",
      "addressCountry": "US",
      "streetAddress": "919 Kearny St",
      "addressLocality": "San Francisco",
      "addressRegion": "CA",
      "postalCode": "94133"
    },
    "aggregateRating": {
      "@type": "AggregateRating",
      "ratingValue": 4,
      "reviewCount": 7
    },
    "telephone": "(415) 421-1429",
    "openingHours": [
      "Mo-Fr 11:00-21:00",
      "Sa-Su 12:00-21:00"
    ]
  },
  {
    "@type": "LocalBusiness",
    "@context": "https://schema.org",
    "name": "S & T Hong Kong Seafood Restaurant",
    "url": "https://www.yellowpages.com/san-francisco-ca/mip/s-t-hong-kong-seafood-restaurant-1922146",
    "address": {
      "@type": "PostalAddress",
      "addressCountry": "US",
      "streetAddress": "2578 Noriega St",
      "addressLocality": "San Francisco",
      "addressRegion": "CA",
      "postalCode": "94122"
    },
    "aggregateRating": {
      "@type": "AggregateRating",
      "ratingValue": 1,
      "reviewCount": 2
    },
    "telephone": "(415) 665-8338",
    "openingHours": [
      "Mo-Fr 10:00-21:00",
      "Sa-Su 09:00-17:00"
    ]
  },
  {
    "@type": "LocalBusiness",
    "@context": "https://schema.org",
    "name": "Great Eastern Restaurant",
    "url": "https://www.yellowpages.com/san-francisco-ca/mip/great-eastern-restaurant-6283076",
    "address": {
      "@type": "PostalAddress",
      "addressCountry": "US",
      "streetAddress": "649 Jackson St",
      "addressLocality": "San Francisco",
      "addressRegion": "CA",
      "postalCode": "94133"
    },
    "telephone": "(415) 986-2500",
    "openingHours": [
      "Mo-Fr 10:00-23:00",
      "Sa-Su 09:00-23:00"
    ]
  },
  {
    "@type": "LocalBusiness",
    "@context": "https://schema.org",
    "name": "Shanghai China Restaurant",
    "url": "https://www.yellowpages.com/san-francisco-ca/mip/shanghai-china-restaurant-568759",
    "address": {
      "@type": "PostalAddress",
      "addressCountry": "US",
      "streetAddress": "1559 Mission St",
      "addressLocality": "San Francisco",
      "addressRegion": "CA",
      "postalCode": "94103"
    },
    "aggregateRating": {
      "@type": "AggregateRating",
      "ratingValue": 4,
      "reviewCount": 2
    },
    "telephone": "(415) 621-8188",
    "openingHours": [
      "Mo-We 11:00-21:30",
      "Fr-Sa 11:00-21:30"
    ]
  },
  {
    "@type": "LocalBusiness",
    "@context": "https://schema.org",
    "name": "Yank Sing - Rincon Center",
    "url": "https://www.yellowpages.com/san-francisco-ca/mip/yank-sing-rincon-center-462030252",
    "address": {
      "@type": "PostalAddress",
      "addressCountry": "US",
      "streetAddress": "101 Spear St",
      "addressLocality": "San Francisco",
      "addressRegion": "CA",
      "postalCode": "94105"
    },
    "aggregateRating": {
      "@type": "AggregateRating",
      "ratingValue": 4,
      "reviewCount": 7
    },
    "telephone": "(415) 781-1111",
    "openingHours": [
      "Mo-Fr 11:00-15:00",
      "Sa-Su 10:00-16:00"
    ]
  },
  {
    "@type": "LocalBusiness",
    "@context": "https://schema.org",
    "name": "Shanghai Kelly's",
    "url": "https://www.yellowpages.com/san-francisco-ca/mip/shanghai-kellys-13394324",
    "address": {
      "@type": "PostalAddress",
      "addressCountry": "US",
      "streetAddress": "2064 Polk St",
      "addressLocality": "San Francisco",
      "addressRegion": "CA",
      "postalCode": "94109"
    },
    "aggregateRating": {
      "@type": "AggregateRating",
      "ratingValue": 4,
      "reviewCount": 3
    },
    "telephone": "(415) 771-3300",
    "openingHours": [
      "Mo-Fr 15:00-02:00",
      "Sa 12:00-02:00",
      "Su 09:00-02:00"
    ]
  },
  {
    "@type": "LocalBusiness",
    "@context": "https://schema.org",
    "name": "Hang Ah Tea Room",
    "url": "https://www.yellowpages.com/san-francisco-ca/mip/hang-ah-tea-room-9331403",
    "address": {
      "@type": "PostalAddress",
      "addressCountry": "US",
      "streetAddress": "1 Pagoda Pl",
      "addressLocality": "San Francisco",
      "addressRegion": "CA",
      "postalCode": "94108"
    },
    "aggregateRating": {
      "@type": "AggregateRating",
      "ratingValue": 5,
      "reviewCount": 2
    },
    "telephone": "(415) 982-5686",
    "openingHours": [
      "Mo 10:30-21:00",
      "Tu 10:30-16:30",
      "We-Su 10:30-21:00"
    ]
  },
  {
    "@type": "LocalBusiness",
    "@context": "https://schema.org",
    "name": "Hon's Wun Tun House",
    "url": "https://www.yellowpages.com/san-francisco-ca/mip/hons-wun-tun-house-13026945",
    "address": {
      "@type": "PostalAddress",
      "addressCountry": "US",
      "streetAddress": "648 Kearny St",
      "addressLocality": "San Francisco",
      "addressRegion": "CA",
      "postalCode": "94108"
    },
    "aggregateRating": {
      "@type": "AggregateRating",
      "ratingValue": 4,
      "reviewCount": 2
    },
    "telephone": "(415) 433-3966",
    "openingHours": [
      "Mo-Sa 09:30-19:00"
    ]
  },
  {
    "@type": "LocalBusiness",
    "@context": "https://schema.org",
    "name": "Jade Cafe",
    "url": "https://www.yellowpages.com/san-francisco-ca/mip/jade-cafe-22251345",
    "address": {
      "@type": "PostalAddress",
      "addressCountry": "US",
      "streetAddress": "1688 Bryant St",
      "addressLocality": "San Francisco",
      "addressRegion": "CA",
      "postalCode": "94103"
    },
    "aggregateRating": {
      "@type": "AggregateRating",
      "ratingValue": 5,
      "reviewCount": 1
    },
    "telephone": "(415) 552-3899",
    "openingHours": [
      "Mo-Sa 11:30-21:00",
      "Su 12:00-21:00"
    ]
  },
  {
    "@type": "LocalBusiness",
    "@context": "https://schema.org",
    "name": "Them Ky",
    "url": "https://www.yellowpages.com/san-francisco-ca/mip/them-ky-411785",
    "address": {
      "@type": "PostalAddress",
      "addressCountry": "US",
      "streetAddress": "717 Ellis St",
      "addressLocality": "San Francisco",
      "addressRegion": "CA",
      "postalCode": "94109"
    },
    "aggregateRating": {
      "@type": "AggregateRating",
      "ratingValue": 5,
      "reviewCount": 1
    },
    "telephone": "(415) 441-8525",
    "openingHours": [
      "Tu-Su 08:00-21:00"
    ]
  },
  {
    "@type": "LocalBusiness",
    "@context": "https://schema.org",
    "name": "New Hollywood Bakery & Restaurant",
    "url": "https://www.yellowpages.com/san-francisco-ca/mip/new-hollywood-bakery-restaurant-6622160",
    "address": {
      "@type": "PostalAddress",
      "addressCountry": "US",
      "streetAddress": "652 Pacific Ave",
      "addressLocality": "San Francisco",
      "addressRegion": "CA",
      "postalCode": "94133"
    },
    "aggregateRating": {
      "@type": "AggregateRating",
      "ratingValue": 5,
      "reviewCount": 1
    },
    "telephone": "(415) 397-9919",
    "openingHours": [
      "Mo 07:30-18:00",
      "We-Su 07:30-18:00"
    ]
  },
  {
    "@type": "LocalBusiness",
    "@context": "https://schema.org",
    "name": "Dragon Well",
    "url": "https://www.yellowpages.com/san-francisco-ca/mip/dragon-well-14730320",
    "address": {
      "@type": "PostalAddress",
      "addressCountry": "US",
      "streetAddress": "2142 Chestnut St",
      "addressLocality": "San Francisco",
      "addressRegion": "CA",
      "postalCode": "94123"
    },
    "aggregateRating": {
      "@type": "AggregateRating",
      "ratingValue": 3,
      "reviewCount": 2
    },
    "telephone": "(415) 474-6888",
    "openingHours": [
      "We-Su 11:00-15:00,17:00-22:00"
    ]
  },
  {
    "@type": "LocalBusiness",
    "@context": "https://schema.org",
    "name": "Dim Sum Bistro",
    "url": "https://www.yellowpages.com/san-francisco-ca/mip/dim-sum-bistro-6975057",
    "address": {
      "@type": "PostalAddress",
      "addressCountry": "US",
      "streetAddress": "675 Broadway",
      "addressLocality": "San Francisco",
      "addressRegion": "CA",
      "postalCode": "94133"
    },
    "aggregateRating": {
      "@type": "AggregateRating",
      "ratingValue": 2.5,
      "reviewCount": 2
    },
    "telephone": "(415) 788-7028",
    "openingHours": [
      "Mo-We 06:30-15:30",
      "Fr-Su 06:30-15:30"
    ]
  },
  {
    "@type": "LocalBusiness",
    "@context": "https://schema.org",
    "name": "Hakkasan",
    "url": "https://www.yellowpages.com/san-francisco-ca/mip/hakkasan-471000848",
    "address": {
      "@type": "PostalAddress",
      "addressCountry": "US",
      "streetAddress": "1 Kearny St",
      "addressLocality": "San Francisco",
      "addressRegion": "CA",
      "postalCode": "94108"
    },
    "aggregateRating": {
      "@type": "AggregateRating",
      "ratingValue": 4,
      "reviewCount": 1
    },
    "telephone": "(415) 829-8148",
    "openingHours": [
      "Mo 11:30-22:00",
      "Tu-Sa 11:30-00:00"
    ]
  },
  {
    "@type": "LocalBusiness",
    "@context": "https://schema.org",
    "name": "Joy Hing Bar-B-Que Noodle House",
    "url": "https://www.yellowpages.com/san-francisco-ca/mip/joy-hing-bar-b-que-noodle-house-470457276",
    "address": {
      "@type": "PostalAddress",
      "addressCountry": "US",
      "streetAddress": "710 Kearny St",
      "addressLocality": "San Francisco",
      "addressRegion": "CA",
      "postalCode": "94108"
    },
    "aggregateRating": {
      "@type": "AggregateRating",
      "ratingValue": 4,
      "reviewCount": 1
    },
    "telephone": "(415) 981-0531",
    "openingHours": [
      "Mo-Su 10:00-20:00"
    ]
  },
  {
    "@type": "LocalBusiness",
    "@context": "https://schema.org",
    "name": "Kam Po Kitchen",
    "url": "https://www.yellowpages.com/san-francisco-ca/mip/kam-po-kitchen-5335874",
    "address": {
      "@type": "PostalAddress",
      "addressCountry": "US",
      "streetAddress": "801 Broadway",
      "addressLocality": "San Francisco",
      "addressRegion": "CA",
      "postalCode": "94133"
    },
    "aggregateRating": {
      "@type": "AggregateRating",
      "ratingValue": 4,
      "reviewCount": 1
    },
    "telephone": "(415) 982-3516",
    "openingHours": [
      "Mo-Su 08:00-20:00"
    ]
  },
  {
    "@type": "LocalBusiness",
    "@context": "https://schema.org",
    "name": "Yin Du Wonton Noodle",
    "url": "https://www.yellowpages.com/san-francisco-ca/mip/yin-du-wonton-noodle-524931870",
    "address": {
      "@type": "PostalAddress",
      "addressCountry": "US",
      "streetAddress": "648 Pacific Ave",
      "addressLocality": "San Francisco",
      "addressRegion": "CA",
      "postalCode": "94133"
    },
    "aggregateRating": {
      "@type": "AggregateRating",
      "ratingValue": 4,
      "reviewCount": 1
    },
    "telephone": "(415) 834-9388",
    "openingHours": [
      "Mo-Tu 09:30-19:00",
      "Th-Su 09:30-19:00"
    ]
  },
  {
    "@type": "LocalBusiness",
    "@context": "https://schema.org",
    "name": "Jasmine Tea House",
    "url": "https://www.yellowpages.com/san-francisco-ca/mip/jasmine-tea-house-8222698",
    "address": {
      "@type": "PostalAddress",
      "addressCountry": "US",
      "streetAddress": "3253 Mission St",
      "addressLocality": "San Francisco",
      "addressRegion": "CA",
      "postalCode": "94110"
    },
    "aggregateRating": {
      "@type": "AggregateRating",
      "ratingValue": 4,
      "reviewCount": 1
    },
    "telephone": "(415) 826-6288",
    "openingHours": [
      "Mo-Su 11:00-22:00"
    ]
  },
  {
    "@type": "LocalBusiness",
    "@context": "https://schema.org",
    "name": "Happy Garden",
    "url": "https://www.yellowpages.com/san-francisco-ca/mip/happy-garden-460578385",
    "address": {
      "@type": "PostalAddress",
      "addressCountry": "US",
      "streetAddress": "815 Clement St",
      "addressLocality": "San Francisco",
      "addressRegion": "CA",
      "postalCode": "94118"
    },
    "aggregateRating": {
      "@type": "AggregateRating",
      "ratingValue": 4,
      "reviewCount": 1
    },
    "telephone": "(415) 831-3322",
    "openingHours": [
      "Mo-Su 09:00-22:00"
    ]
  },
  {
    "@type": "LocalBusiness",
    "@context": "https://schema.org",
    "name": "The Pot's",
    "url": "https://www.yellowpages.com/san-francisco-ca/mip/the-pots-457655946",
    "address": {
      "@type": "PostalAddress",
      "addressCountry": "US",
      "streetAddress": "2652 Judah St",
      "addressLocality": "San Francisco",
      "addressRegion": "CA",
      "postalCode": "94122"
    },
    "aggregateRating": {
      "@type": "AggregateRating",
      "ratingValue": 4,
      "reviewCount": 1
    },
    "telephone": "(415) 682-7889",
    "openingHours": [
      "Mo-Su 17:00-22:00"
    ]
  },
  {
    "@type": "LocalBusiness",
    "@context": "https://schema.org",
    "name": "Chop Sticks Fast Food",
    "url": "https://www.yellowpages.com/san-francisco-ca/mip/chop-sticks-fast-food-10564358",
    "address": {
      "@type": "PostalAddress",
      "addressCountry": "US",
      "streetAddress": "4615 Mission St",
      "addressLocality": "San Francisco",
      "addressRegion": "CA",
      "postalCode": "94112"
    },
    "aggregateRating": {
      "@type": "AggregateRating",
      "ratingValue": 3,
      "reviewCount": 1
    },
    "telephone": "(415) 333-6336",
    "openingHours": [
      "Mo-Sa 11:00-19:30"
    ]
  },
  {
    "@type": "LocalBusiness",
    "@context": "https://schema.org",
    "name": "Palette Tea House",
    "url": "https://www.yellowpages.com/san-francisco-ca/mip/palette-tea-house-565854871",
    "address": {
      "@type": "PostalAddress",
      "addressCountry": "US",
      "streetAddress": "900 N Point St",
      "addressLocality": "San Francisco",
      "addressRegion": "CA",
      "postalCode": "94109"
    },
    "telephone": "(415) 347-8888",
    "openingHours": [
      "Mo-Th 11:30-19:30",
      "Fr-Su 11:30-20:00"
    ]
  },
  {
    "@type": "LocalBusiness",
    "@context": "https://schema.org",
    "name": "Rangoon Ruby",
    "url": "https://www.yellowpages.com/san-francisco-ca/mip/rangoon-ruby-545443846",
    "address": {
      "@type": "PostalAddress",
      "addressCountry": "US",
      "streetAddress": "590 Van Ness Ave",
      "addressLocality": "San Francisco",
      "addressRegion": "CA",
      "postalCode": "94102"
    },
    "telephone": "(415) 610-4333",
    "openingHours": [
      "Mo-Fr 11:00-14:30",
      "Sa 16:00-20:00"
    ]
  },
  {
    "@type": "LocalBusiness",
    "@context": "https://schema.org",
    "name": "What The Cluck Geary",
    "url": "https://www.yellowpages.com/san-francisco-ca/mip/what-the-cluck-geary-568024202",
    "address": {
      "@type": "PostalAddress",
      "addressCountry": "US",
      "streetAddress": "829 Geary St",
      "addressLocality": "San Francisco",
      "addressRegion": "CA",
      "postalCode": "94109"
    },
    "telephone": "(415) 780-4728",
    "openingHours": [
      "Mo-Fr 10:00-22:00",
      "Sa-Su 12:00-22:00"
    ]
  },
  {
    "@type": "LocalBusiness",
    "@context": "https://schema.org",
    "name": "Happy Lamb Hot Pot",
    "url": "https://www.yellowpages.com/san-francisco-ca/mip/happy-lamb-hot-pot-554886074",
    "address": {
      "@type": "PostalAddress",
      "addressCountry": "US",
      "streetAddress": "405 Mason St",
      "addressLocality": "San Francisco",
      "addressRegion": "CA",
      "postalCode": "94102"
    },
    "telephone": "(415) 673-9919",
    "openingHours": [
      "Mo-Su 12:00-23:00"
    ]
  },
  {
    "@type": "LocalBusiness",
    "@context": "https://schema.org",
    "name": "Dumpling Time",
    "url": "https://www.yellowpages.com/san-francisco-ca/mip/dumpling-time-535779301",
    "address": {
      "@type": "PostalAddress",
      "addressCountry": "US",
      "streetAddress": "11 Division St",
      "addressLocality": "San Francisco",
      "addressRegion": "CA",
      "postalCode": "94103"
    },
    "telephone": "(415) 525-4797",
    "openingHours": [
      "Mo-Fr 11:00-21:00",
      "Sa-Su 10:00-21:00"
    ]
  },
  {
    "@type": "LocalBusiness",
    "@context": "https://schema.org",
    "name": "Dumpling House",
    "url": "https://www.yellowpages.com/san-francisco-ca/mip/dumpling-house-550847444",
    "address": {
      "@type": "PostalAddress",
      "addressCountry": "US",
      "streetAddress": "335 Noe St",
      "addressLocality": "San Francisco",
      "addressRegion": "CA",
      "postalCode": "94114"
    },
    "telephone": "(415) 829-2789",
    "openingHours": [
      "Mo-Fr 11:00-14:30",
      "Sa-Su 11:00-21:30"
    ]
  },
  {
    "@type": "LocalBusiness",
    "@context": "https://schema.org",
    "name": "Farmhouse Kitchen Thai Cuisine",
    "url": "https://www.yellowpages.com/san-francisco-ca/mip/farmhouse-kitchen-thai-cuisine-506710431",
    "address": {
      "@type": "PostalAddress",
      "addressCountry": "US",
      "streetAddress": "710 Florida St",
      "addressLocality": "San Francisco",
      "addressRegion": "CA",
      "postalCode": "94110"
    },
    "telephone": "(415) 814-2920",
    "openingHours": [
      "Mo-Th 11:00-22:00",
      "Fr 11:00-22:30",
      "Sa 12:00-22:30",
      "Su 12:00-22:00"
    ]
  },
  {
    "@type": "LocalBusiness",
    "@context": "https://schema.org",
    "name": "Donburi Ya",
    "url": "https://www.yellowpages.com/san-francisco-ca/mip/donburi-ya-550749149",
    "address": {
      "@type": "PostalAddress",
      "addressCountry": "US",
      "streetAddress": "764 Harrison St",
      "addressLocality": "San Francisco",
      "addressRegion": "CA",
      "postalCode": "94107"
    },
    "telephone": "(415) 896-2288",
    "openingHours": [
      "Mo-Sa 11:00-15:00"
    ]
  },
  {
    "@type": "LocalBusiness",
    "@context": "https://schema.org",
    "name": "Makli Restaurant",
    "url": "https://www.yellowpages.com/san-francisco-ca/mip/makli-restaurant-451653902",
    "address": {
      "@type": "PostalAddress",
      "addressCountry": "US",
      "streetAddress": "290 Sanchez St",
      "addressLocality": "San Francisco",
      "addressRegion": "CA",
      "postalCode": "94114"
    },
    "telephone": "(415) 863-9128",
    "openingHours": [
      "Mo 11:30-21:30",
      "We-Su 11:30-21:30"
    ]
  },
  {
    "@type": "LocalBusiness",
    "@context": "https://schema.org",
    "name": "Chinese Cuisine",
    "url": "https://www.yellowpages.com/san-francisco-ca/mip/chinese-cuisine-502848102",
    "address": {
      "@type": "PostalAddress",
      "addressCountry": "US",
      "streetAddress": "290 Sanchez St",
      "addressLocality": "San Francisco",
      "addressRegion": "CA",
      "postalCode": "94114"
    },
    "telephone": "(415) 834-5437",
    "openingHours": [
      "Mo-Su 11:00-22:00"
    ]
  },
  {
    "@type": "LocalBusiness",
    "@context": "https://schema.org",
    "name": "Gourmet Carousel",
    "url": "https://www.yellowpages.com/san-francisco-ca/mip/gourmet-carousel-11292968",
    "address": {
      "@type": "PostalAddress",
      "addressCountry": "US",
      "streetAddress": "1559 Franklin St",
      "addressLocality": "San Francisco",
      "addressRegion": "CA",
      "postalCode": "94109"
    },
    "telephone": "(415) 771-2044",
    "openingHours": [
      "Mo-Sa 16:30-21:00"
    ]
  },
  {
    "@type": "LocalBusiness",
    "@context": "https://schema.org",
    "name": "Little Sheep Mongolian Hot Pot",
    "url": "https://www.yellowpages.com/san-francisco-ca/mip/little-sheep-mongolian-hot-pot-498697479",
    "address": {
      "@type": "PostalAddress",
      "addressCountry": "US",
      "streetAddress": "405 Mason St",
      "addressLocality": "San Francisco",
      "addressRegion": "CA",
      "postalCode": "94102"
    },
    "telephone": "(415) 673-9919",
    "openingHours": [
      "Mo-Fr 11:30-22:00",
      "Sa 11:30-22:30"
    ]
  },
  {
    "@type": "LocalBusiness",
    "@context": "https://schema.org",
    "name": "Tea & Others",
    "url": "https://www.yellowpages.com/san-francisco-ca/mip/tea-others-550829571",
    "address": {
      "@type": "PostalAddress",
      "addressCountry": "US",
      "streetAddress": "250 Divisadero St",
      "addressLocality": "San Francisco",
      "addressRegion": "CA",
      "postalCode": "94117"
    },
    "telephone": "(415) 864-4920",
    "openingHours": [
      "Mo-Su 11:00-17:00"
    ]
  },
  {
    "@type": "LocalBusiness",
    "@context": "https://schema.org",
    "name": "Kung Food",
    "url": "https://www.yellowpages.com/san-francisco-ca/mip/kung-food-505772578",
    "address": {
      "@type": "PostalAddress",
      "addressCountry": "US",
      "streetAddress": "1615 Mcallister St",
      "addressLocality": "San Francisco",
      "addressRegion": "CA",
      "postalCode": "94115"
    },
    "telephone": "(415) 673-6688",
    "openingHours": [
      "Mo-Th 17:00-21:30",
      "Fr 17:30-21:30",
      "Sa-Su 17:00-21:30"
    ]
  },
  {
    "@type": "LocalBusiness",
    "@context": "https://schema.org",
    "name": "Beijing Tong Ren Tang Farlong",
    "url": "https://www.yellowpages.com/san-francisco-ca/mip/beijing-tong-ren-tang-farlong-547217659",
    "address": {
      "@type": "PostalAddress",
      "addressCountry": "US",
      "streetAddress": "1515 Scott St",
      "addressLocality": "San Francisco",
      "addressRegion": "CA",
      "postalCode": "94115"
    },
    "telephone": "(415) 771-8050",
    "openingHours": [
      "Mo-Sa 09:30-18:00"
    ]
  },
  {
    "@type": "LocalBusiness",
    "@context": "https://schema.org",
    "name": "Academy of Traditional Chinese Medicine & Science",
    "url": "https://www.yellowpages.com/san-francisco-ca/mip/academy-of-traditional-chinese-medicine-science-2868137",
    "address": {
      "@type": "PostalAddress",
      "addressCountry": "US",
      "streetAddress": "2000 Van Ness Ave",
      "addressLocality": "San Francisco",
      "addressRegion": "CA",
      "postalCode": "94109"
    },
    "telephone": "(415) 928-1186",
    "openingHours": [
      "Mo-Fr 09:00-17:00"
    ]
  },
  {
    "@type": "LocalBusiness",
    "@context": "https://schema.org",
    "name": "Lee's Deli",
    "url": "https://www.yellowpages.com/san-francisco-ca/mip/lees-deli-22316338",
    "address": {
      "@type": "PostalAddress",
      "addressCountry": "US",
      "streetAddress": "615 Market St",
      "addressLocality": "San Francisco",
      "addressRegion": "CA",
      "postalCode": "94105"
    },
    "telephone": "(415) 615-9889",
    "openingHours": [
      "Mo-Fr 06:00-16:00"
    ]
  },
  {
    "@type": "LocalBusiness",
    "@context": "https://schema.org",
    "name": "Lotus Lunch Box",
    "url": "https://www.yellowpages.com/san-francisco-ca/mip/lotus-lunch-box-480132302",
    "address": {
      "@type": "PostalAddress",
      "addressCountry": "US",
      "streetAddress": "380 Bush St Ste 6",
      "addressLocality": "San Francisco",
      "addressRegion": "CA",
      "postalCode": "94104"
    },
    "telephone": "(415) 788-3788"
  },
  {
    "@type": "LocalBusiness",
    "@context": "https://schema.org",
    "name": "Old Shanghai",
    "url": "https://www.yellowpages.com/san-francisco-ca/mip/old-shanghai-14470094",
    "address": {
      "@type": "PostalAddress",
      "addressCountry": "US",
      "streetAddress": "645 Grant Ave",
      "addressLocality": "San Francisco",
      "addressRegion": "CA",
      "postalCode": "94108"
    },
    "telephone": "(415) 986-1222",
    "openingHours": [
      "Mo-Th 10:00-20:00",
      "Fr-Sa 10:00-21:00",
      "Su 10:00-20:00"
    ]
  },
  {
    "@type": "LocalBusiness",
    "@context": "https://schema.org",
    "name": "Cafe New Honolulu",
    "url": "https://www.yellowpages.com/san-francisco-ca/mip/cafe-new-honolulu-6998721",
    "address": {
      "@type": "PostalAddress",
      "addressCountry": "US",
      "streetAddress": "888 Stockton St",
      "addressLocality": "San Francisco",
      "addressRegion": "CA",
      "postalCode": "94108"
    },
    "telephone": "(415) 982-6688",
    "openingHours": [
      "Mo-Su 06:30-20:00"
    ]
  },
  {
    "@type": "LocalBusiness",
    "@context": "https://schema.org",
    "name": "Mister Jiu's",
    "url": "https://www.yellowpages.com/san-francisco-ca/mip/mister-jius-526834118",
    "address": {
      "@type": "PostalAddress",
      "addressCountry": "US",
      "streetAddress": "28 Waverly Pl",
      "addressLocality": "San Francisco",
      "addressRegion": "CA",
      "postalCode": "94108"
    },
    "telephone": "(415) 857-9688",
    "openingHours": [
      "Tu-Th 17:30-22:30",
      "Fr-Sa 17:30-23:00"
    ]
  },
  {
    "@type": "LocalBusiness",
    "@context": "https://schema.org",
    "name": "Spicy King",
    "url": "https://www.yellowpages.com/san-francisco-ca/mip/spicy-king-484676227",
    "address": {
      "@type": "PostalAddress",
      "addressCountry": "US",
      "streetAddress": "65 Waverly Pl",
      "addressLocality": "San Francisco",
      "addressRegion": "CA",
      "postalCode": "94108"
    },
    "telephone": "(415) 982-6868",
    "openingHours": [
      "Mo-Su 11:30-22:00"
    ]
  },
  {
    "@type": "LocalBusiness",
    "@context": "https://schema.org",
    "name": "New Hong Kong Menu",
    "url": "https://www.yellowpages.com/san-francisco-ca/mip/new-hong-kong-menu-504861251",
    "address": {
      "@type": "PostalAddress",
      "addressCountry": "US",
      "streetAddress": "769 Sacramento St Apt 1",
      "addressLocality": "San Francisco",
      "addressRegion": "CA",
      "postalCode": "94108"
    },
    "telephone": "(415) 391-3677",
    "openingHours": [
      "Mo-Su 11:00-22:00"
    ]
  },
  {
    "@type": "LocalBusiness",
    "@context": "https://schema.org",
    "name": "China Express Deli",
    "url": "https://www.yellowpages.com/san-francisco-ca/mip/china-express-deli-483170849",
    "address": {
      "@type": "PostalAddress",
      "addressCountry": "US",
      "streetAddress": "2732 Mission St",
      "addressLocality": "San Francisco",
      "addressRegion": "CA",
      "postalCode": "94110"
    },
    "telephone": "(415) 821-3375"
  },
  {
    "@type": "LocalBusiness",
    "@context": "https://schema.org",
    "name": "Snow Garden",
    "url": "https://www.yellowpages.com/san-francisco-ca/mip/snow-garden-16509530",
    "address": {
      "@type": "PostalAddress",
      "addressCountry": "US",
      "streetAddress": "712 Grant Ave",
      "addressLocality": "San Francisco",
      "addressRegion": "CA",
      "postalCode": "94108"
    },
    "telephone": "(415) 982-3815",
    "openingHours": [
      "Mo-Su 11:30-21:30"
    ]
  },
  {
    "@type": "LocalBusiness",
    "@context": "https://schema.org",
    "name": "Metro Hong Kong Dessert",
    "url": "https://www.yellowpages.com/san-francisco-ca/mip/metro-hong-kong-dessert-547048971",
    "address": {
      "@type": "PostalAddress",
      "addressCountry": "US",
      "streetAddress": "928 Stockton St",
      "addressLocality": "San Francisco",
      "addressRegion": "CA",
      "postalCode": "94108"
    },
    "telephone": "(415) 732-1288",
    "openingHours": [
      "Mo 10:30-20:30",
      "We-Su 10:30-20:30"
    ]
  },
  {
    "@type": "LocalBusiness",
    "@context": "https://schema.org",
    "name": "Yummy Dim Sum",
    "url": "https://www.yellowpages.com/san-francisco-ca/mip/yummy-dim-sum-457395825",
    "address": {
      "@type": "PostalAddress",
      "addressCountry": "US",
      "streetAddress": "930 Stockton St",
      "addressLocality": "San Francisco",
      "addressRegion": "CA",
      "postalCode": "94108"
    },
    "telephone": "(415) 986-2783"
  },
  {
    "@type": "LocalBusiness",
    "@context": "https://schema.org",
    "name": "Eastern Bakery",
    "url": "https://www.yellowpages.com/san-francisco-ca/mip/eastern-bakery-2590190",
    "address": {
      "@type": "PostalAddress",
      "addressCountry": "US",
      "streetAddress": "720 Grant Ave",
      "addressLocality": "San Francisco",
      "addressRegion": "CA",
      "postalCode": "94108"
    },
    "telephone": "(415) 982-5157",
    "openingHours": [
      "Mo-Su 09:30-20:30"
    ]
  },
  {
    "@type": "LocalBusiness",
    "@context": "https://schema.org",
    "name": "Utopia Cafe",
    "url": "https://www.yellowpages.com/san-francisco-ca/mip/utopia-cafe-4883566",
    "address": {
      "@type": "PostalAddress",
      "addressCountry": "US",
      "streetAddress": "139 Waverly Pl",
      "addressLocality": "San Francisco",
      "addressRegion": "CA",
      "postalCode": "94108"
    },
    "telephone": "(415) 956-2902",
    "openingHours": [
      "Mo-Su 05:30-21:30"
    ]
  },
  {
    "@type": "LocalBusiness",
    "@context": "https://schema.org",
    "name": "US China Executor Exchange Institute",
    "url": "https://www.yellowpages.com/san-francisco-ca/mip/us-china-executor-exchange-institute-30942823",
    "address": {
      "@type": "PostalAddress",
      "addressCountry": "US",
      "streetAddress": "300 Montgomery St Ste 415",
      "addressLocality": "San Francisco",
      "addressRegion": "CA",
      "postalCode": "94104"
    },
    "telephone": "(415) 986-3932",
    "openingHours": [
      "Mo-Su 11:00-22:00"
    ]
  },
  {
    "@type": "LocalBusiness",
    "@context": "https://schema.org",
    "name": "Wo Chong Co",
    "url": "https://www.yellowpages.com/san-francisco-ca/mip/wo-chong-co-1659504",
    "address": {
      "@type": "PostalAddress",
      "addressCountry": "US",
      "streetAddress": "863 Washington St",
      "addressLocality": "San Francisco",
      "addressRegion": "CA",
      "postalCode": "94108"
    },
    "telephone": "(415) 982-6137"
  },
  {
    "@type": "LocalBusiness",
    "@context": "https://schema.org",
    "name": "Chinese Worker Assoc",
    "url": "https://www.yellowpages.com/san-francisco-ca/mip/chinese-worker-assoc-4136232",
    "address": {
      "@type": "PostalAddress",
      "addressCountry": "US",
      "streetAddress": "142 Waverly Pl",
      "addressLocality": "San Francisco",
      "addressRegion": "CA",
      "postalCode": "94108"
    },
    "telephone": "(415) 391-6350"
  },
  {
    "@type": "LocalBusiness",
    "@context": "https://schema.org",
    "name": "New Golden Daisy",
    "url": "https://www.yellowpages.com/san-francisco-ca/mip/new-golden-daisy-557450",
    "address": {
      "@type": "PostalAddress",
      "addressCountry": "US",
      "streetAddress": "1041 Stockton St",
      "addressLocality": "San Francisco",
      "addressRegion": "CA",
      "postalCode": "94108"
    },
    "telephone": "(415) 392-0111",
    "openingHours": [
      "Mo-Su 07:30-17:45"
    ]
  },
  {
    "@type": "LocalBusiness",
    "@context": "https://schema.org",
    "name": "The Lucky Creation Vegetarian Restaurant",
    "url": "https://www.yellowpages.com/san-francisco-ca/mip/the-lucky-creation-vegetarian-restaurant-5892776",
    "address": {
      "@type": "PostalAddress",
      "addressCountry": "US",
      "streetAddress": "854 Washington St",
      "addressLocality": "San Francisco",
      "addressRegion": "CA",
      "postalCode": "94108"
    },
    "telephone": "(415) 989-0818",
    "openingHours": [
      "Mo-Tu 09:00-21:30",
      "Th-Su 11:00-21:00"
    ]
  },
  {
    "@type": "LocalBusiness",
    "@context": "https://schema.org",
    "name": "Maggie's Cafe",
    "url": "https://www.yellowpages.com/san-francisco-ca/mip/maggies-cafe-477861909",
    "address": {
      "@type": "PostalAddress",
      "addressCountry": "US",
      "streetAddress": "848 Grant Ave",
      "addressLocality": "San Francisco",
      "addressRegion": "CA",
      "postalCode": "94108"
    },
    "telephone": "(415) 362-0601",
    "openingHours": [
      "Mo 09:00-15:00",
      "Tu-Fr 08:00-16:00",
      "Sa-Su 09:00-15:00"
    ]
  },
  {
    "@type": "LocalBusiness",
    "@context": "https://schema.org",
    "name": "Hunan House",
    "url": "https://www.yellowpages.com/san-francisco-ca/mip/hunan-house-528224155",
    "address": {
      "@type": "PostalAddress",
      "addressCountry": "US",
      "streetAddress": "826 Washington St",
      "addressLocality": "San Francisco",
      "addressRegion": "CA",
      "postalCode": "94108"
    },
    "telephone": "(415) 398-1299",
    "openingHours": [
      "Mo-Su 11:00-22:00"
    ]
  },
  {
    "@type": "LocalBusiness",
    "@context": "https://schema.org",
    "name": "New Nam Hai",
    "url": "https://www.yellowpages.com/san-francisco-ca/mip/new-nam-hai-543595909",
    "address": {
      "@type": "PostalAddress",
      "addressCountry": "US",
      "streetAddress": "919 Grant Ave",
      "addressLocality": "San Francisco",
      "addressRegion": "CA",
      "postalCode": "94108"
    },
    "telephone": "(415) 397-3678"
  },
  {
    "@type": "LocalBusiness",
    "@context": "https://schema.org",
    "name": "House of Dim Sum",
    "url": "https://www.yellowpages.com/san-francisco-ca/mip/house-of-dim-sum-11394097",
    "address": {
      "@type": "PostalAddress",
      "addressCountry": "US",
      "streetAddress": "735 Jackson St",
      "addressLocality": "San Francisco",
      "addressRegion": "CA",
      "postalCode": "94133"
    },
    "telephone": "(415) 399-0888",
    "openingHours": [
      "Mo-Su 07:00-18:30"
    ]
  },
  {
    "@type": "LocalBusiness",
    "@context": "https://schema.org",
    "name": "Dim Sum Corner",
    "url": "https://www.yellowpages.com/san-francisco-ca/mip/dim-sum-corner-548688349",
    "address": {
      "@type": "PostalAddress",
      "addressCountry": "US",
      "streetAddress": "601 Grant Ave",
      "addressLocality": "San Francisco",
      "addressRegion": "CA",
      "postalCode": "94108"
    },
    "telephone": "(415) 362-1118",
    "openingHours": [
      "Mo-Su 11:30-18:30"
    ]
  },
  {
    "@type": "LocalBusiness",
    "@context": "https://schema.org",
    "name": "Good Mong Kok Bakery",
    "url": "https://www.yellowpages.com/san-francisco-ca/mip/good-mong-kok-bakery-8788493",
    "address": {
      "@type": "PostalAddress",
      "addressCountry": "US",
      "streetAddress": "1039 Stockton St",
      "addressLocality": "San Francisco",
      "addressRegion": "CA",
      "postalCode": "94108"
    },
    "telephone": "(415) 397-2688",
    "openingHours": [
      "Mo-Su 07:00-18:00"
    ]
  },
  {
    "@type": "LocalBusiness",
    "@context": "https://schema.org",
    "name": "Sam Wo Restaurant",
    "url": "https://www.yellowpages.com/san-francisco-ca/mip/sam-wo-restaurant-505282801",
    "address": {
      "@type": "PostalAddress",
      "addressCountry": "US",
      "streetAddress": "713 Clay St",
      "addressLocality": "San Francisco",
      "addressRegion": "CA",
      "postalCode": "94108"
    },
    "telephone": "(415) 989-8898",
    "openingHours": [
      "Mo 11:00-16:00",
      "We-Th 11:00-16:00,18:00-00:00",
      "Fr-Sa 11:00-16:00,18:00-03:00",
      "Su 11:00-16:00"
    ]
  },
  {
    "@type": "LocalBusiness",
    "@context": "https://schema.org",
    "name": "Pot & Noodle",
    "url": "https://www.yellowpages.com/san-francisco-ca/mip/pot-noodle-537307553",
    "address": {
      "@type": "PostalAddress",
      "addressCountry": "US",
      "streetAddress": "650 Jackson St",
      "addressLocality": "San Francisco",
      "addressRegion": "CA",
      "postalCode": "94133"
    },
    "telephone": "(415) 981-0803",
    "openingHours": [
      "Mo-Tu 11:00-21:30",
      "Th-Su 11:00-21:30"
    ]
  },
  {
    "@type": "LocalBusiness",
    "@context": "https://schema.org",
    "name": "Begoni Bistro Dim Sum & Wok",
    "url": "https://www.yellowpages.com/san-francisco-ca/mip/begoni-bistro-dim-sum-wok-497685589",
    "address": {
      "@type": "PostalAddress",
      "addressCountry": "US",
      "streetAddress": "615 Jackson St",
      "addressLocality": "San Francisco",
      "addressRegion": "CA",
      "postalCode": "94133"
    },
    "telephone": "(415) 757-0120",
    "openingHours": [
      "Mo-Su 11:00-21:30"
    ]
  },
  {
    "@type": "LocalBusiness",
    "@context": "https://schema.org",
    "name": "Chong Qing Xiao Mian",
    "url": "https://www.yellowpages.com/san-francisco-ca/mip/chong-qing-xiao-mian-527278268",
    "address": {
      "@type": "PostalAddress",
      "addressCountry": "US",
      "streetAddress": "915 Kearny St",
      "addressLocality": "San Francisco",
      "addressRegion": "CA",
      "postalCode": "94133"
    },
    "telephone": "(415) 983-0888",
    "openingHours": [
      "Mo 06:00-22:30",
      "Tu 07:30-23:00",
      "We 07:30-22:30",
      "Th 06:00-22:30",
      "Fr 07:00-22:30",
      "Sa-Su 07:00-23:00"
    ]
  },
  {
    "@type": "LocalBusiness",
    "@context": "https://schema.org",
    "name": "House of Xian Dumpling",
    "url": "https://www.yellowpages.com/san-francisco-ca/mip/house-of-xian-dumpling-481509976",
    "address": {
      "@type": "PostalAddress",
      "addressCountry": "US",
      "streetAddress": "925 Kearny St",
      "addressLocality": "San Francisco",
      "addressRegion": "CA",
      "postalCode": "94133"
    },
    "telephone": "(415) 398-1626",
    "openingHours": [
      "Mo-Su 11:00-22:00"
    ]
  },
  {
    "@type": "LocalBusiness",
    "@context": "https://schema.org",
    "name": "China Live",
    "url": "https://www.yellowpages.com/san-francisco-ca/mip/china-live-524932091",
    "address": {
      "@type": "PostalAddress",
      "addressCountry": "US",
      "streetAddress": "644 Broadway",
      "addressLocality": "San Francisco",
      "addressRegion": "CA",
      "postalCode": "94133"
    },
    "telephone": "(415) 788-8188"
  },
  {
    "@type": "LocalBusiness",
    "@context": "https://schema.org",
    "name": "Eight Tables",
    "url": "https://www.yellowpages.com/san-francisco-ca/mip/eight-tables-533322860",
    "address": {
      "@type": "PostalAddress",
      "addressCountry": "US",
      "streetAddress": "644 Broadway",
      "addressLocality": "San Francisco",
      "addressRegion": "CA",
      "postalCode": "94133"
    },
    "telephone": "(415) 788-8788",
    "openingHours": [
      "Tu-Sa 17:30-21:30"
    ]
  },
  {
    "@type": "LocalBusiness",
    "@context": "https://schema.org",
    "name": "Little Szechuan",
    "url": "https://www.yellowpages.com/san-francisco-ca/mip/little-szechuan-482139171",
    "address": {
      "@type": "PostalAddress",
      "addressCountry": "US",
      "streetAddress": "501 Broadway",
      "addressLocality": "San Francisco",
      "addressRegion": "CA",
      "postalCode": "94133"
    },
    "telephone": "(415) 986-8832",
    "openingHours": [
      "Mo-Su 11:00-22:00"
    ]
  },
  {
    "@type": "LocalBusiness",
    "@context": "https://schema.org",
    "name": "Osmanthus Dim Sum Lounge",
    "url": "https://www.yellowpages.com/san-francisco-ca/mip/osmanthus-dim-sum-lounge-552584512",
    "address": {
      "@type": "PostalAddress",
      "addressCountry": "US",
      "streetAddress": "504 Broadway",
      "addressLocality": "San Francisco",
      "addressRegion": "CA",
      "postalCode": "94133"
    },
    "telephone": "(415) 872-9648",
    "openingHours": [
      "Mo-Su 10:30-21:00"
    ]
  },
  {
    "@type": "LocalBusiness",
    "@context": "https://schema.org",
    "name": "Chubby Noodle",
    "url": "https://www.yellowpages.com/san-francisco-ca/mip/chubby-noodle-465540989",
    "address": {
      "@type": "PostalAddress",
      "addressCountry": "US",
      "streetAddress": "570 Green St",
      "addressLocality": "San Francisco",
      "addressRegion": "CA",
      "postalCode": "94133"
    },
    "telephone": "(415) 296-9600",
    "openingHours": [
      "Mo-Su 11:00-22:00"
    ]
  },
  {
    "@type": "LocalBusiness",
    "@context": "https://schema.org",
    "name": "What The Cluck",
    "url": "https://www.yellowpages.com/san-francisco-ca/mip/what-the-cluck-545276707",
    "address": {
      "@type": "PostalAddress",
      "addressCountry": "US",
      "streetAddress": "1782 Haight St",
      "addressLocality": "San Francisco",
      "addressRegion": "CA",
      "postalCode": "94117"
    },
    "telephone": "(415) 702-6777",
    "openingHours": [
      "Mo-Su 11:00-20:00"
    ]
  },
  {
    "@type": "LocalBusiness",
    "@context": "https://schema.org",
    "name": "Imperial Tea Court",
    "url": "https://www.yellowpages.com/san-francisco-ca/mip/imperial-tea-court-456080149",
    "address": {
      "@type": "PostalAddress",
      "addressCountry": "US",
      "streetAddress": "Ferry Building Market Place Shop 27  1 Ferry Building Plaza",
      "addressLocality": "San Francisco",
      "addressRegion": "CA",
      "postalCode": "94111"
    },
    "telephone": "(415) 544-9830",
    "openingHours": [
      "Mo-Su 10:00-18:30"
    ]
  },
  {
    "@type": "LocalBusiness",
    "@context": "https://schema.org",
    "name": "Karaweik Burmese Cuisine",
    "url": "https://www.yellowpages.com/san-francisco-ca/mip/karaweik-burmese-cuisine-548786202",
    "address": {
      "@type": "PostalAddress",
      "addressCountry": "US",
      "streetAddress": "3317 Steiner St",
      "addressLocality": "San Francisco",
      "addressRegion": "CA",
      "postalCode": "94123"
    },
    "telephone": "(415) 922-1892",
    "openingHours": [
      "Tu-Th 17:00-21:00",
      "Fr 17:00-21:30",
      "Sa 16:30-21:30",
      "Su 16:30-21:00"
    ]
  },
  {
    "@type": "LocalBusiness",
    "@context": "https://schema.org",
    "name": "D & A Cafe",
    "url": "https://www.yellowpages.com/san-francisco-ca/mip/d-a-cafe-1252972",
    "address": {
      "@type": "PostalAddress",
      "addressCountry": "US",
      "streetAddress": "407 Clement St",
      "addressLocality": "San Francisco",
      "addressRegion": "CA",
      "postalCode": "94118"
    },
    "telephone": "(415) 668-7882",
    "openingHours": [
      "Mo-Su 11:00-20:00"
    ]
  },
  {
    "@type": "LocalBusiness",
    "@context": "https://schema.org",
    "name": "Zhuo Kitchen",
    "url": "https://www.yellowpages.com/san-francisco-ca/mip/zhuo-kitchen-549542390",
    "address": {
      "@type": "PostalAddress",
      "addressCountry": "US",
      "streetAddress": "1380 9th Ave",
      "addressLocality": "San Francisco",
      "addressRegion": "CA",
      "postalCode": "94122"
    },
    "telephone": "(415) 571-8510",
    "openingHours": [
      "Mo-Tu 17:00-21:30",
      "Th 17:00-21:30",
      "Fr 17:00-22:00",
      "Sa 11:00-22:00",
      "Su 11:00-21:30"
    ]
  },
  {
    "@type": "LocalBusiness",
    "@context": "https://schema.org",
    "name": "China North Dumpling",
    "url": "https://www.yellowpages.com/san-francisco-ca/mip/china-north-dumpling-480151899",
    "address": {
      "@type": "PostalAddress",
      "addressCountry": "US",
      "streetAddress": "1311 Noriega St",
      "addressLocality": "San Francisco",
      "addressRegion": "CA",
      "postalCode": "94122"
    },
    "telephone": "(415) 665-9777",
    "openingHours": [
      "Mo-Su 11:00-22:00"
    ]
  },
  {
    "@type": "LocalBusiness",
    "@context": "https://schema.org",
    "name": "Dim Sum Club 點心薈",
    "url": "https://www.yellowpages.com/san-francisco-ca/mip/dim-sum-club--562458648",
    "address": {
      "@type": "PostalAddress",
      "addressCountry": "US",
      "streetAddress": "2237 Taraval St",
      "addressLocality": "San Francisco",
      "addressRegion": "CA",
      "postalCode": "94116"
    },
    "telephone": "(415) 592-8938",
    "openingHours": [
      "Mo-Fr 10:30-15:00,17:00-21:00",
      "Sa-Su 10:00-15:00,17:00-21:00"
    ]
  },
  {
    "@type": "LocalBusiness",
    "@context": "https://schema.org",
    "name": "King Kee Chinese Restaurant",
    "url": "https://www.yellowpages.com/san-francisco-ca/mip/king-kee-chinese-restaurant-532660328",
    "address": {
      "@type": "PostalAddress",
      "addressCountry": "US",
      "streetAddress": "101 Cyril Magnin St",
      "addressLocality": "San Francisco",
      "addressRegion": "CA",
      "postalCode": "94102"
    },
    "telephone": "(415) 398-8188",
    "openingHours": [
      "Mo-Sa 12:00-21:30",
      "Su 16:00-21:30"
    ]
  },
  {
    "@type": "LocalBusiness",
    "@context": "https://schema.org",
    "name": "Dumpling Home",
    "url": "https://www.yellowpages.com/san-francisco-ca/mip/dumpling-home-555131343",
    "address": {
      "@type": "PostalAddress",
      "addressCountry": "US",
      "streetAddress": "298 Gough St",
      "addressLocality": "San Francisco",
      "addressRegion": "CA",
      "postalCode": "94102"
    },
    "telephone": "(415) 503-1666",
    "openingHours": [
      "Mo-Th 17:00-20:15",
      "Fr-Sa 17:00-20:45",
      "Su 17:00-20:15"
    ]
  },
  {
    "@type": "LocalBusiness",
    "@context": "https://schema.org",
    "name": "List Me",
    "url": "https://www.yellowpages.com/san-francisco-ca/mip/list-me-467149989",
    "address": {
      "@type": "PostalAddress",
      "addressCountry": "US",
      "streetAddress": "1240 Market St",
      "addressLocality": "San Francisco",
      "addressRegion": "CA",
      "postalCode": "94102"
    },
    "telephone": "(415) 553-8062",
    "openingHours": [
      "Mo-Su"
    ]
  },
  {
    "@type": "LocalBusiness",
    "@context": "https://schema.org",
    "name": "Teo",
    "url": "https://www.yellowpages.com/san-francisco-ca/mip/teo-526853053",
    "address": {
      "@type": "PostalAddress",
      "addressCountry": "US",
      "streetAddress": "1111 Mission St",
      "addressLocality": "San Francisco",
      "addressRegion": "CA",
      "postalCode": "94103"
    },
    "telephone": "(415) 626-8366",
    "openingHours": [
      "Mo-Fr 11:30-21:30",
      "Sa-Su 17:00-21:30"
    ]
  },
  {
    "@type": "LocalBusiness",
    "@context": "https://schema.org",
    "name": "Hot Zushi",
    "url": "https://www.yellowpages.com/san-francisco-ca/mip/hot-zushi-520480614",
    "address": {
      "@type": "PostalAddress",
      "addressCountry": "US",
      "streetAddress": "531 Haight St",
      "addressLocality": "San Francisco",
      "addressRegion": "CA",
      "postalCode": "94117"
    },
    "telephone": "(415) 863-8638",
    "openingHours": [
      "Mo-Th 17:30-22:00",
      "Fr-Sa 17:30-22:30",
      "Su 17:30-22:00"
    ]
  },
  {
    "@type": "LocalBusiness",
    "@context": "https://schema.org",
    "name": "Indo Chine Inc",
    "url": "https://www.yellowpages.com/san-francisco-ca/mip/indo-chine-inc-482015416",
    "address": {
      "@type": "PostalAddress",
      "addressCountry": "US",
      "streetAddress": "508 Valencia St",
      "addressLocality": "San Francisco",
      "addressRegion": "CA",
      "postalCode": "94110"
    },
    "telephone": "(415) 701-0700",
    "openingHours": [
      "Mo-Su 05:00-22:00"
    ]
  },
  {
    "@type": "LocalBusiness",
    "@context": "https://schema.org",
    "name": "David",
    "url": "https://www.yellowpages.com/san-francisco-ca/mip/david-12636616",
    "address": {
      "@type": "PostalAddress",
      "addressCountry": "US",
      "streetAddress": "181 Eddy St",
      "addressLocality": "San Francisco",
      "addressRegion": "CA",
      "postalCode": "94102"
    },
    "telephone": "(415) 359-9792"
  },
  {
    "@type": "LocalBusiness",
    "@context": "https://schema.org",
    "name": "Bao",
    "url": "https://www.yellowpages.com/san-francisco-ca/mip/bao-561296165",
    "address": {
      "@type": "PostalAddress",
      "addressCountry": "US",
      "streetAddress": "590 Valencia St",
      "addressLocality": "San Francisco",
      "addressRegion": "CA",
      "postalCode": "94110"
    },
    "telephone": "(415) 658-7453",
    "openingHours": [
      "Mo-Su 11:30-21:30"
    ]
  },
  {
    "@type": "LocalBusiness",
    "@context": "https://schema.org",
    "name": "District Tea",
    "url": "https://www.yellowpages.com/san-francisco-ca/mip/district-tea-550472184",
    "address": {
      "@type": "PostalAddress",
      "addressCountry": "US",
      "streetAddress": "2154 Mission St",
      "addressLocality": "San Francisco",
      "addressRegion": "CA",
      "postalCode": "94110"
    },
    "telephone": "(415) 638-6134",
    "openingHours": [
      "Mo-Th 12:00-19:00",
      "Fr-Sa 12:00-20:00",
      "Su 12:00-19:00"
    ]
  },
  {
    "@type": "LocalBusiness",
    "@context": "https://schema.org",
    "name": "Wing Lum Cafe",
    "url": "https://www.yellowpages.com/san-francisco-ca/mip/wing-lum-cafe-15064541",
    "address": {
      "@type": "PostalAddress",
      "addressCountry": "US",
      "streetAddress": "1150 Polk St",
      "addressLocality": "San Francisco",
      "addressRegion": "CA",
      "postalCode": "94109"
    },
    "telephone": "(415) 771-6888",
    "openingHours": [
      "Mo-Su 11:00-00:00"
    ]
  },
  {
    "@type": "LocalBusiness",
    "@context": "https://schema.org",
    "name": "King Lees Restaurant",
    "url": "https://www.yellowpages.com/san-francisco-ca/mip/king-lees-restaurant-455433677",
    "address": {
      "@type": "PostalAddress",
      "addressCountry": "US",
      "streetAddress": "1426 Fillmore St",
      "addressLocality": "San Francisco",
      "addressRegion": "CA",
      "postalCode": "94115"
    },
    "telephone": "(415) 563-8882",
    "openingHours": [
      "Mo 11:00-21:30",
      "Tu 11:00-21:00",
      "We-Su 11:00-21:30"
    ]
  }
]